[
  {
    "name": "Stony Brook Nutrition Assistance",
    "address": "100 Nicolls Rd, Stony Brook, NY 11794",
    "lat": 40.9135,
    "lon": -73.1231,
    "hours": "Mon\u2013Fri 9:00\u201317:00",
    "phone": "(631) 632-6000",
    "notes": "Campus-affiliated resource hub."
  },
  {
    "name": "Long Island Cares \u2013 The Harry Chapin Food Bank",
    "address": "10 Davids Dr, Hauppauge, NY 11788",
    "lat": 40.8344,
    "lon": -73.2148,
    "hours": "Mon\u2013Fri 9:00\u201316:00",
    "phone": "(631) 582-3663",
    "notes": "Call ahead for distribution schedule."
  },
  {
    "name": "Island Harvest Food Bank",
    "address": "126 Spagnoli Rd, Melville, NY 11747",
    "lat": 40.7762,
    "lon": -73.4142,
    "hours": "Mon\u2013Fri 9:00\u201317:00",
    "phone": "(631) 873-4775",
    "notes": "Mobile pantry locations vary\u2014check site."
  },
  {
    "name": "St. Gerard Majella Outreach Pantry",
    "address": "300 Terryville Rd, Port Jefferson Station, NY 11776",
    "lat": 40.9177,
    "lon": -73.0502,
    "hours": "Tue\u2013Thu 10:00\u201314:00",
    "phone": "(631) 473-2900",
    "notes": "Bring ID if available; assistance regardless."
  },
  {
    "name": "St. James R.C. Church Outreach",
    "address": "429 NY-25A, Setauket- East Setauket, NY 11733",
    "lat": 40.9365,
    "lon": -73.1063,
    "hours": "Mon\u2013Fri 10:00\u201315:00",
    "phone": "(631) 941-4141",
    "notes": "Food pantry and referrals."
  },
  {
    "name": "St. Paul\u2019s Lutheran Church Pantry",
    "address": "390 Patchogue Rd, Port Jefferson Station, NY 11776",
    "lat": 40.912,
    "lon": -73.0582,
    "hours": "Sat 10:00\u201312:00",
    "phone": "(631) 473-2236",
    "notes": "Saturday distribution."
  },
  {
    "name": "St. Anselm\u2019s Episcopal Church Pantry",
    "address": "4 Buckingham Rd, Shoreham, NY 11786",
    "lat": 40.9445,
    "lon": -72.8874,
    "hours": "2nd & 4th Sat 10:00\u201312:00",
    "phone": "(631) 744-7730",
    "notes": "Check schedule before visiting."
  },
  {
    "name": "Light of Christ Pantry",
    "address": "30 Chestnut St, Port Jefferson Station, NY 11776",
    "lat": 40.915,
    "lon": -73.0462,
    "hours": "Wed 10:00\u201312:00",
    "phone": "(631) 473-0165",
    "notes": "Local community pantry."
  }
]